{
    "header": {
        "title": "Chicagoland Vegetarian, Vegan and Raw Restaurants",
        "brandLogoUrl": "../images/brand.jpg"
    },
    "footer": { 
        "orgName": "ChicagoVeg", 
        "links": [
            {
                "url": "http://www.chicagoveg.com",
                "text": "ChicagoVeg Link"
            }
        ] 
    },
    "map": {
        "key": "AIzaSyByCCCkeDy_tiq1DCcaZOi3BLvN-RIa9Uc",
        "defaultLocation": "Chicago, IL",
        "startingLatitude": "41.954418",
        "startingLongitude": "-87.669250",
        "zoom": 10
    },
    "restaurants": [
        {
            "id": "1",
            "name": "Cinnaholic - Wicker Parker",
            "url": "https://www.cinnaholic.com/",
            "latitude": "41.911225797488335",
            "longitude": "-87.66999652947602",
            "address": {
                "address": "1295 N Milwaukee Ave",
                "city": "Chicago",
                "state": "IL",
                "zip": "60622"
            },
            "phone": "773.360.8864",
            "closed": "true",
            "type": "Vegan"
        },
        {
            "id": "2",
            "name": "Chicago Raw - French Market",
            "url": "http://www.chicagorawfood.com",
            "latitude": "41.88391",
            "longitude": "-87.64086480000003",
            "address": {
                "address": "131 N. Clinton St",
                "city": "Chicago",
                "state": "IL",
                "zip": "60661"
            },
            "phone": "312.831.2729",
            "closed": "true",
            "type": "Raw Vegan",
            "yelpAlias": "chicago-raw-chicago"
        },
        {
           "id": "3",
            "name": "Urban Vegan",
            "url": " http://www.urbanveganchicago.com",
            "latitude": "41.96144899999999",
            "longitude": "-87.66945429999998",
            "address": {
                "address": "1601 W Montrose Ave",
                "city": "Chicago",
                "state": "IL",
                "zip": "60613"
            },
            "phone": "773.404.1109",
            "type": "Vegan",
            "yelpAlias": "urban-vegan-chicago-2"
        },
        {
            "id": "4",
            "name": "Cinnaholic - Evanston",
            "url": "https://www.cinnaholic.com/",
            "latitude": "42.0468012400356",
            "longitude": "-87.68208588179124",
            "address": {
                "address": "1596 Sherman Ave",
                "city": "Evanston",
                "state": "IL",
                "zip": "60201"
            },
            "phone": "847.425.0239",
            "closed": "true",
            "type": "Vegan"
        },
        {
            "id": "5",
            "name": "Chicago Diner - Logan Square",
            "url": "http://veggiediner.com/index.html",
            "latitude": "41.923514",
            "longitude": "-87.698547",
            "address": {
                "address": "2333 N. Milwaukee Ave",
                "city": "Chicago",
                "state": "IL",
                "zip": "60647"
            },
            "phone": " 773.252.3211",
            "type": "Vegetarian",
            "sponsor": "",
            "bestInTownAward": "Runnerup",
            "closed": "true",
            "yelpAlias": "the-chicago-diner-chicago-2"
        },
        {
            "id": "6",
            "name": "Cinnaholic - Schaumburg",
            "url": "https://www.cinnaholic.com/",
            "latitude": "42.05673812959497",
            "longitude": "-88.04673763839956",
            "address": {
                "address": "1404 E Golf Rd",
                "city": "Schaumburg",
                "state": "IL",
                "zip": "60173"
            },
            "phone": "847.420.3831",
            "closed": "true",
            "type": "Vegan"
        },
        {
            "id": "7",
            "name": "Cinnaholic - Naperville",
            "url": "https://locations.cinnaholic.com/ll/us/il/naperville/47/",
            "latitude": "41.77763458054574",
            "longitude": "-88.15018435658901",
            "address": {
                "address": "41 W Jefferson Ave",
                "city": "Naperville",
                "state": "IL",
                "zip": "60540"
            },
            "phone": "630.857.9575",
            "type": "Vegan"
        },
        {
            "id": "8",
            "name": "Ground Control",
            "url": "http://www.groundcontrolchicago.com",
            "latitude": "41.917332",
            "longitude": "-87.710685",
            "address": {
                "address": "3315 W. Armitage Ave",
                "city": "Chicago",
                "state": "IL",
                "zip": "60647"
            },
            "phone": "773.772.9446",
            "type": "Vegetarian",
            "closed": "true",
            "yelpAlias": "ground-control-chicago"
        },
        {
            "id": "10",
            "name": "Chataka Masti",
            "url": "http://chatakamasti.com",
            "latitude": "41.7696417",
            "longitude": "-88.20657010000002",
            "address": {
                "address": "888 S. Rt. 59 #108",
                "city": "Naperville",
                "state": "IL",
                "zip": "60540"
            },
            "phone": "630.922.5880",
            "type": "Vegetarian",
            "closed": "true",
            "yelpAlias": "chataka-masti-naperville"
        },
        {
            "id": "11",
            "name": "Kramer's Health Foods Cafe",
            "url": "http://www.kramershealthfoods.com",
            "latitude": "41.879135",
            "longitude": "-87.626138",
            "address": {
                "address": "230 S Wabash Ave",
                "city": "Chicago",
                "state": "IL",
                "zip": "60604"
            },
            "phone": "312.922.0077",
            "type": "Vegetarian",
            "closed": "true",
            "yelpAlias": ""
        },
        {
            "id": "12",
            "name": "Quesadilla La Reyna Del Sur",
            "url": "http://orderquesadillalareinadelsur.com/index.php",
            "latitude": "41.922918129551555",
            "longitude": "-87.68729393149076",
            "address": {
                "address": "2237 N. Western Ave",
                "city": "Chicago",
                "state": "IL",
                "zip": "60647"
            },
            "phone": "773.235.8807",
            "type": "Vegetarian",
            "sponsor": "Gold",
            "bestInTownAward": "",
            "yelpAlias": ""
        },
        {
            "id": "13",
            "name": "Vegetarian Express - Halsted",
            "url": "http://vegetarian-express.com",
            "latitude": "41.938352",
            "longitude": "-87.649354",
            "address": {
                "address": "3109 N. Halsted St",
                "city": "Chicago",
                "state": "IL",
                "zip": "60657"
            },
            "phone": "773.880.9155",
            "type": "Vegetarian",
            "closed": "true",
            "yelpAlias": "vegetarian-express-chicago"
        },
        {
            "id": "14",
            "name": "Victory's Banner",
            "url": "http://www.victorysbanner.com/home",
            "latitude": "41.943232",
            "longitude": "-87.680955",
            "address": {
                "address": "2100 W. Roscoe St",
                "city": "Chicago",
                "state": "IL",
                "zip": "60618"
            },
            "phone": "773.665.0227",
            "type": "Vegetarian",
            "closed": "true",
            "yelpAlias": ""
        },
        {
            "id": "15",
            "name": "Amitabul",
            "url": "https://amitabulvegan.com",
            "latitude": "41.994100",
            "longitude": "-87.784240",
            "address": {
                "address": "6207 N. Milwaukee Ave",
                "city": "Chicago",
                "state": "IL",
                "zip": ""
            },
            "phone": "773.774.0276",
            "type": "Vegan",
            "bestInTownAward": "Runnerup",
            "yelpAlias": "amitabul-chicago-5"
        },
        {
            "id": "16",
            "name": "Delicious Café",
            "url": "http://amitabulvegan.com",
            "latitude": "41.951297",
            "longitude": "-87.676891",
            "address": {
                "address": "3827 N. Lincoln Ave",
                "city": "Chicago",
                "state": "IL",
                "zip": "60646"
            },
            "phone": "773.477.9840",
            "type": "Vegan",
            "closed": "true",
            "yelpAlias": ""
        },
        {
            "id": "19",
            "name": "Kitchen 17",
            "url": "http://www.kitchen17.com",
            "latitude": "41.93870159999999",
            "longitude": "-87.64460330000003",
            "address": {
                "address": "3132 N Broadway",
                "city": "Chicago",
                "state": "IL",
                "zip": "60657"
            },
            "phone": "312.391.8654",
            "type": "Vegan",
            "sponsor": "",
            "closed": "true",
            "yelpAlias": "kitchen-17-chicago"
        },
        {
            "id": "20",
            "name": "Loving Heart",
            "url": "https://www.lovingheartvegan.com/",
            "latitude": "41.962053",
            "longitude": "-87.65168670000003",
            "address": {
                "address": "838 W. Montrose Ave",
                "city": "Chicago",
                "state": "IL",
                "zip": "60613"
            },
            "phone": "773.561.5399",
            "type": "Vegan",
            "yelpAlias": "loving-heart-chicago"
        },
        {
            "id": "21",
            "name": "Alice & Friends' Vegan Kitchen",
            "url": "http://aliceandfriendsvegankitchen.com",
            "latitude": "41.987461",
            "longitude": "-87.660477",
            "address": {
                "address": "5812 N. Broadway St",
                "city": "Chicago",
                "state": "IL",
                "zip": "60660"
            },
            "phone": "773.275.8797",
            "type": "Vegan",
            "bestInTownAward": "Top",
            "sponsor": "Gold",
            "yelpAlias": "alice-and-friends-vegan-kitchen-chicago-2"
        },
        {
            "id": "22",
            "name": "Mariano’s Veg'd Bar",
            "url": "http://www.marianos.com/bucktown",
            "latitude": "41.9200411",
            "longitude": "-87.6687478",
            "address": {
                "address": "2112 N Ashland Ave",
                "city": "Chicago",
                "state": "IL",
                "zip": "60614"
            },
            "phone": "773.342.6585",
            "type": "Vegan",
            "yelpAlias": "marianos-fresh-market-chicago-12",
            "closed": "true"
        },
        {
            "id": "23",
            "name": "Native Foods Café - Lakeview",
            "url": "https://www.nativefoods.com/locations/locations/lakeview",
            "latitude": "41.939637",
            "longitude": "-87.6550775",
            "address": {
                "address": "1023 W. Belmont Ave",
                "city": "Chicago",
                "state": "IL",
                "zip": "60657"
            },
            "phone": "773.549.4904",
            "type": "Vegan",
            "yelpAlias": "native-foods-cafe-chicago-2",
            "closed": "true"
        },
        {
            "id": "24",
            "name": "Native Foods Café - Loop",
            "url": "https://www.nativefoods.com/locations/locations/loop",
            "latitude": "41.878867",
            "longitude": "-87.631168",
            "address": {
                "address": "218 S. Clark St",
                "city": "Chicago",
                "state": "IL",
                "zip": "60604"
            },
            "phone": "312.332.6332",
            "type": "Vegan",
            "closed": "true",
            "yelpAlias": "native-foods-cafe-chicago-2"
        },
        {
            "id": "25",
            "name": "Native Foods Café - Hyde Park",
            "url": "https://www.nativefoods.com/locations/locations/hyde-park",
            "latitude": "41.8003383",
            "longitude": "-87.58828210000001",
            "address": {
                "address": "1518 E Harper Ct",
                "city": "Chicago",
                "state": "IL",
                "zip": "60615"
            },
            "phone": "773-241-7800",
            "type": "Vegan",
            "yelpAlias": "native-foods-cafe-chicago-2",
            "closed": "true"
        },
        {
            "id": "26",
            "name": "Native Foods Café - Wicker Park",
            "url": "https://www.nativefoods.com/locations/locations/wicker-park",
            "latitude": "41.908664",
            "longitude": "-87.6753109",
            "address": {
                "address": "1484 N. Milwaukee Ave",
                "city": "Chicago",
                "state": "IL",
                "zip": "60622"
            },
            "phone": "773.489.8480",
            "type": "Vegan",
            "yelpAlias": "native-foods-cafe-chicago-2",
            "closed": "true"
        },
        {
            "id": "27",
            "name": "Soul Veg City",
            "url": "https://www.soulvegcity.com/",
            "latitude": "41.7581566",
            "longitude": "-87.61962720000002",
            "address": {
                "address": "205 E. 75th St",
                "city": "Chicago",
                "state": "IL",
                "zip": "60619"
            },
            "phone": "773.224.0104",
            "type": "Vegan",
            "yelpAlias": "soul-vegetarian-east-chicago"
        },
        {
            "id": "29",
            "name": "Upton's Breakroom",
            "url": "http://www.uptonsnaturals.com/breakroom/",
            "latitude": "41.8909794",
            "longitude": "-87.67907560000003",
            "address": {
                "address": "2054 W Grand Ave",
                "city": "Chicago",
                "state": "IL",
                "zip": "60614"
            },
            "phone": "312.666.7838",
            "type": "Vegan",
            "yelpAlias": "uptons-breakroom-chicago"
        },
        {
            "id": "30",
            "name": "Vegan Plate - Lincoln Park",
            "url": "http://www.veganplatechicago.com",
            "latitude": "41.925369",
            "longitude": "-87.66772509999998",
            "address": {
                "address": "1550 W. Fullerton Ave",
                "city": "Chicago",
                "state": "IL",
                "zip": "60614"
            },
            "phone": "773.472.8208",
            "type": "Vegan",
            "yelpAlias": "vegan-plate-chicago"
        },
        {
            "id": "32",
            "name": "B'Gabs Goodies",
            "url": " https://www.facebook.com/BGabsGoodies",
            "latitude": "41.79151359999999",
            "longitude": "-87.58977419999997",
            "address": {
                "address": "1450 E 57th St",
                "city": "Chicago",
                "state": "IL",
                "zip": "60637"
            },
            "phone": "773.256.1000",
            "type": "Raw Vegan",
            "yelpAlias": "bgabs-goodies-chicago-2"
        },
        {
            "id": "34",
            "name": "Karyn's (opens in Spring)",
            "url": "http://www.karynraw.com",
            "latitude": "41.913072",
            "longitude": "-87.66736019999996",
            "address": {
                "address": "1717 N. Ashland Avenue",
                "city": "Chicago",
                "state": "IL",
                "zip": "60622"
            },
            "phone": "312.255.1590",
            "type": "Vegan",
            "yelpAlias": "karyns-inner-beauty-center-chicago-2",
            "closed": "true"
        },
        {
            "id": "35",
            "name": "Chicago Raw - Gold Coast",
            "url": "http://www.chicagorawfood.com",
            "latitude": "41.8947217",
            "longitude": "-87.63010220000001",
            "address": {
                "address": "51 W. Huron St",
                "city": "Chicago",
                "state": "IL",
                "zip": "60654"
            },
            "phone": "312.831.2729",
            "type": "Raw Vegan",
            "closed": "true",
            "yelpAlias": "chicago-raw-chicago-2"
        },
        {
            "id": "36",
            "name": "Annappurna",
            "url": "http://www.eatannapurna.com/",
            "latitude": "41.9978471",
            "longitude": "-87.6951148",
            "address": {
                "address": "2608 W. Devon Ave",
                "city": "Chicago",
                "state": "IL",
                "zip": "60659"
            },
            "phone": "773.764.1858",
            "type": "Vegetarian",
            "yelpAlias": "annapurna-chicago"
        },
        {
            "id": "37",
            "name": "Arya Bhavan",
            "url": "http://www.aryabhavan.com",
            "latitude": "41.9979058",
            "longitude": "-87.692816900000038",
            "address": {
                "address": "2508 W. Devon Ave",
                "city": "Chicago",
                "state": "IL",
                "zip": "60659"
            },
            "phone": "773.274.5800",
            "type": "Vegan",
            "yelpAlias": "arya-bhavan-chicago"
        },
        {
            "id": "39",
            "name": "Mysore Woodlands",
            "url": "http://www.mysorewoodlandschicago.com/",
            "latitude": "41.9978937",
            "longitude": "-87.69435149999998",
            "address": {
                "address": "2548 W. Devon Ave",
                "city": "Chicago",
                "state": "IL",
                "zip": "mysore-woodlands-chicago"
            },
            "phone": "773.338.8160",
            "type": "Vegetarian",
            "yelpAlias": ""
        },
        {
            "id": "40",
            "name": "Sukhadia's",
            "url": "http://sukhadiasweetschicago.com",
            "latitude": "41.9976267",
            "longitude": "-87.69452609999996",
            "address": {
                "address": "2559 W. Devon Ave",
                "city": "Chicago",
                "state": "IL",
                "zip": "60659"
            },
            "phone": "773.338.5400",
            "type": "Vegetarian",
            "yelpAlias": "sukhadias-chicago"
        },
        {
            "id": "41",
            "name": "Udupi Palace",
            "url": "http://www.udupipalacechicago.com",
            "latitude": "41.9974375",
            "longitude": "-87.6940093",
            "address": {
                "address": "2557 W. Devon Ave",
                "city": "Chicago",
                "state": "IL",
                "zip": "60659"
            },
            "phone": "773.338.2152",
            "type": "Vegetarian",
            "closed": "true",
            "yelpAlias": "udupi-palace-restaurant-chicago"
        },
        {
            "id": "42",
            "name": "Uru-Swati",
            "url": "http://www.uru-swati.net/public_html/Home.html",
            "latitude": "41.9973381",
            "longitude": "-87.6957979",
            "address": {
                "address": "2629 W. Devon Ave",
                "city": "Chicago",
                "state": "IL",
                "zip": "60659"
            },
            "phone": "773.262.5280",
            "type": "Vegetarian",
            "yelpAlias": "uru-swati-chicago"
        },
        {
            "id": "43",
            "name": "Munch",
            "url": "http://www.munchrestaurant.net",
            "latitude": "41.8876256",
            "longitude": "-87.80215650000002",
            "address": {
                "address": "104 North Marion St",
                "city": "Oak Park",
                "state": "IL",
                "zip": "60301"
            },
            "phone": "708.848.4226",
            "type": "Vegetarian",
            "yelpAlias": "munch-oak-park-2"
        },
        {
            "id": "44",
            "name": "Chicago Diner",
            "url": "http://veggiediner.com",
            "latitude": "41.9440076",
            "longitude": "-87.64914420000002",
            "address": {
                "address": "3411 N. Halsted St",
                "city": "Chicago",
                "state": "IL",
                "zip": "60657"
            },
            "phone": "773.935.6696",
            "type": "Vegetarian",
            "sponsor": "",
            "bestInTownAward": "Runnerup",
            "yelpAlias": "the-chicago-diner-chicago"
        },
        {
            "id": "45",
            "name": "Blind Faith Café",
            "url": "http://www.blindfaithcafe.com",
            "latitude": "42.0413317",
            "longitude": "-87.68002589999998",
            "address": {
                "address": "525 Dempster St",
                "city": "Evanston",
                "state": "IL",
                "zip": "60201"
            },
            "phone": "847.328.6875",
            "type": "Vegetarian",
            "yelpAlias": "blind-faith-cafe-evanston-3"
        },
        {
            "id": "48",
            "name": "Chowpatti",
            "url": "http://www.tpsiclients.com/chowpatti",
            "latitude": "42.064868",
            "longitude": "-87.979467",
            "address": {
                "address": "1035 S. Arlington Heights Rd",
                "city": "Arlington Heights",
                "state": "IL",
                "zip": "60515"
            },
            "phone": "847.640.9554",
            "type": "Vegetarian",
            "closed": "true",
            "yelpAlias": ""
        },
        {
            "id": "49",
            "name": "Expressly Leslie",
            "url": "https://www.facebook.com/ExpresslyLeslie/",
            "latitude": "42.314448",
            "longitude": "-88.44838700000003",
            "address": {
                "address": "110 S. Johnson St",
                "city": "Woodstock",
                "state": "IL",
                "zip": "60098"
            },
            "phone": "815.338.2833",
            "type": "Vegetarian",
            "yelpAlias": "expressly-leslie-vegetarian-specialties-woodstock"
        },
        {
            "id": "50",
            "name": "Shree - Westmont",
            "url": "http://shreerestaurants.com",
            "latitude": "41.810408",
            "longitude": "-87.97587829999998",
            "address": {
                "address": "655 N. Cass Ave.",
                "city": "Westmont",
                "state": "IL",
                "zip": "60559"
            },
            "phone": "630.655.1021",
            "type": "Vegetarian",
            "yelpAlias": "shree-restaurant-westmont"
        },
        {
            "id": "51",
            "name": "Vegan Café",
            "url": "https://www.hsvegancafelockport.com/",
            "latitude": "41.5808757",
            "longitude": "-88.05093219999998",
            "address": {
                "address": "928 S. State St",
                "city": "Lockport",
                "state": "IL",
                "zip": "60441"
            },
            "phone": "815.838.4626",
            "type": "Raw Vegan",
            "yelpAlias": "vegan-café-lockport"
        },
        {
            "id": "53",
            "name": "Daisy's Cafe",
            "url": "https://www.facebook.com/pages/Daisys-Catering-Cafe/433315993366810",
            "latitude": "41.609357",
            "longitude": "-87.63345020000003",
            "address": {
                "address": "15417 Vincennes Rd",
                "city": "Phoenix",
                "state": "IL",
                "zip": "60426"
            },
            "phone": "708.250.6334",
            "type": "Vegan",
            "closed": "true",
            "yelpAlias": "daisys-catering-cafe-phoenix"
        },
        {
            "id": "54",
            "name": "Pure Juice Cafe",
            "url": "http://www.purejuicecafe.com",
            "latitude": "42.0823768",
            "longitude": "-87.98175509999999",
            "address": {
                "address": "24 S Evergreen Ave",
                "city": "Arlington Heights",
                "state": "IL",
                "zip": "60005"
            },
            "phone": "847.873.0942",
            "type": "Raw Vegan",
            "yelpAlias": "pure-juice-café-arlington-heights-2"
        },
        {
            "id": "55",
            "name": "Vegetarian Fast Food",
            "url": "http://purevegetarianonly.com",
            "latitude": "41.9373961",
            "longitude": "-88.08375969999997",
            "address": {
                "address": "185 E Army Trail Rd",
                "city": "Glendale Heights",
                "state": "IL",
                "zip": "60139"
            },
            "phone": "630.529.3344",
            "type": "Vegetarian",
            "closed":"true",
            "yelpAlias": ""
        },
        {
            "id": "57",
            "name": "Maoz Vegetarian - Rosemont",
            "url": "http://www.maozusa.com/restaurants/locations/chicago",
            "latitude": "41.9754921",
            "longitude": "-87.8659695",
            "address": {
                "address": "5220 Fashion Outlet Wy Ste F1",
                "city": "Rosemont",
                "state": "IL",
                "zip": "60018"
            },
            "phone": "847.678.8834",
            "type": "Vegetarian",
            "yelpAlias": "maoz-rosemont"
        },
    
        {
            "id": "60",
            "name": "Purple Sprout Conscious Organics",
            "url": "https://purplesprout.com/",
            "latitude": "42.159460",
            "longitude": "-87.943250",
            "address": {
                "address": "364 Lexington Drive",
                "city": "Buffalo Grove",
                "state": "IL",
                "zip": "60089"
            },
            "phone": "224.223.7133",
            "type": "Vegan",
            "sponsor": "Gold",
            "bestInTownAward": "",
            "closed": "true",
            "yelpAlias": "purple-sprout-cafe-wheeling-2"
        },
        {
            "id": "61",
            "name": "Cinnamon Bistro",
            "url": "http://cinnamonbistro.com",
            "latitude": "42.190251",
            "longitude": "-88.10938870000001",
            "address": {
                "address": "751 W. Route 22",
                "city": "Lake Zurich",
                "state": "IL",
                "zip": "60047"
            },
            "phone": "224-662-4138",
            "type": "Vegan",
            "sponsor": "",
            "bestInTownAward": "",
            "closed": "true",
            "yelpAlias": ""
        },
         {
            "id": "62",
            "name": "Vegetarian Express - Damen",
            "url": " https://www.facebook.com/pages/Vegetarian-Express-Ravenswood/866452050100299",
            "latitude": "41.9683258",
            "longitude": "-87.67881369999998",
            "address": {
                "address": "4747 N Damen Ave",
                "city": "Chicago",
                "state": "IL",
                "zip": "60624"
            },
            "phone": "773.989.1030",
            "type": "Vegetarian",
            "sponsor": "",
            "bestInTownAward": "",
            "closed": "true",
            "yelpAlias": "vegetarian-express-chicago-3"
        },
         {
            "id": "63",
            "name": "Kalish - Short Order Vegan",
            "url": " http://www.kalishvegan.com/",
            "latitude": "41.965091",
            "longitude": "-87.662877",
            "address": {
                "address": "1313 W. Wilson Ave",
                "city": "Chicago",
                "state": "IL",
                "zip": "60640"
            },
            "phone": "773.293.7768",
            "type": "Vegan",
            "sponsor": "",
            "bestInTownAward": "",
            "yelpAlias": "kāl-ish-chicago",
            "closed": "true"
        },
         {
            "id": "64",
            "name": "Vegan Now",
            "url": "http://www.facebook.com/EatVeganNow",
            "latitude": "41.884077",
            "longitude": "-87.640852",
            "address": {
                "address": "131 N Clinton St",
                "city": "Chicago",
                "state": "IL",
                "zip": "60661"
            },
            "phone": "312.575.0306",
            "type": "Vegan",
            "sponsor": "",
            "bestInTownAward": "",
            "yelpAlias": "vegan-now-chicago",
            "closed": "true"
        },
         {
            "id": "66",
            "name": "Hunter's Brewing",
            "url": "http://huntersbrewing.com/",
            "latitude": "41.597244",
            "longitude": "-87.046342",
            "address": {
                "address": "1535 S. Calumet Rd",
                "city": "Chesterton",
                "state": "In",
                "zip": "46304"
            },
            "phone": "219.728.6729 ",
            "type": "Vegetarian",
            "sponsor": "",
            "bestInTownAward": "",
            "yelpAlias": "hunters-brewing-chesterton"
        }, 
         {
            "id": "67",
            "name": "Majani -South Shore",
            "url": "https://www.majani.biz",
            "latitude": "41.764758",
            "longitude": "-87.564944",
            "address": {
                "address": "7167 S. Exchange Ave",
                "city": "Chicago",
                "state": "IL",
                "zip": "60649"
            },
            "phone": "773.359.4019",
            "type": "Vegan",
            "sponsor": "",
            "bestInTownAward": "",
            "yelpAlias": "majani-restaurant-chicago"
        }, 
        {
            "id": "68",
            "name": "The Chicago House of Za",
            "url": "http://thechicagohouseofza.com/",
            "latitude": "41.952310",
            "longitude": "-87.682330",
            "address": {
                "address": "1939 W Byron St",
                "city": "Chicago",
                "state": "IL",
                "zip": "60613"
            },
            "phone": "773.770.3848",
            "type": "Vegan",
            "sponsor": "",
            "closed": "true",
            "yelpAlias": "the-chicago-house-of-za-vegan-pizzeria-chicago"
        }, 
        {
            "id": "69",
            "name": "Bot Bakery",
            "url": "https://www.facebook.com/botbakery/",
            "latitude": "41.7659977",
            "longitude": "-87.56310919999999",
            "address": {
                "address": "7100 S. South Shore Drive",
                "city": "Chicago",
                "state": "IL",
                "zip": "60649"
            },
            "phone": "773.495.4615",
            "type": "Vegan",
            "sponsor": "",
            "bestInTownAward": "",
            "yelpAlias": "bot-bakery-chicago"
        },
        {
            "id": "70",
            "name": "Veggie Grill - Lakeview",
            "url": "https://www.veggiegrill.com",
            "latitude": "41.9329614",
            "longitude": "-87.64432750000003",
            "address": {
                "address": "614 W Diversey Pkwy",
                "city": "Chicago",
                "state": "IL",
                "zip": "60614"
            },
            "phone": "773.868.1863",
            "type": "Vegan",
            "sponsor": "",
            "bestInTownAward": "",
            "closed": "true",
            "yelpAlias": "veggie-grill-chicago"
        }, 
        {
            "id": "71",
            "name": "Fresh Cafe",
            "url": "https://www.facebook.com/freshcafemundelein/",
            "latitude": "42.271200",
            "longitude": "-88.003600",
            "address": {
                "address": "461 N Lake St",
                "city": "Mundelein",
                "state": "IL",
                "zip": "60060"
            },
            "phone": "224.804.8966",
            "type": "Vegan",
            "sponsor": "",
            "bestInTownAward": "",
            "yelpAlias": "fresh-cafe-mundelein"
        },
        {
            "id": "72",
            "name": "Pine Food Company",
            "url": "http://www.pinefoodcompany.com/",
            "latitude": "42.153517",
            "longitude": "-88.135468",
            "address": {
                "address": "100 Station St",
                "city": "Barrington",
                "state": "IL",
                "zip": "60010"
            },
            "phone": "847.302.1531",
            "type": "Vegetarian",
            "sponsor": "",
            "bestInTownAward": "",
            "closed": "true",
            "yelpAlias": "pine-food-company-barrington"
        }, 
        {
            "id": "73",
            "name": "Melted Co.",
            "url": "http://www.pinefoodcompany.com/",
            "latitude": "42.138453",
            "longitude": "-87.963758",
            "address": {
                "address": "249 W Dundee Rd",
                "city": "Buffalo Grove",
                "state": "IL",
                "zip": "60089"
            },
            "phone": " 847.668.6316",
            "type": "Vegan",
            "sponsor": "",
            "bestInTownAward": "",
            "closed":"true",
            "yelpAlias": ""
        },
       {
            "id": "74",
            "name": "Mingle Juice Bar",
            "url": "http://minglejuicebar.com/",
            "latitude": "42.088338",
            "longitude": "-87.823872",
            "address": {
                "address": "1830 Tower Dr (at The Glen Town Center)",
                "city": "Glenview",
                "state": "IL",
                "zip": "60026"
            },
            "phone": " 847.668.6316",
            "type": "Vegetarian",
            "sponsor": "",
            "bestInTownAward": "",
            "yelpAlias": "mingle-juice-bar-glenview"
        }, {
            "id": "75",
            "name": "Healthy Substance",
            "url": "http://www.healthysubstance.com",
            "latitude": "41.792400",
            "longitude": "-87.793638",
            "address": {
                "address": "6852 W Archer Ave",
                "city": "Chicago",
                "state": "IL",
                "zip": "60038"
            },
            "phone": "773.306.2808",
            "type": "Vegan",
            "sponsor": "",
            "bestInTownAward": "",
            "yelpAlias": "healthy-substance-chicago"
        }, {
            "id": "76",
            "name": "Veggie Grill - West Loop",
            "url": "https://www.veggiegrill.com/",
            "latitude": "41.884063",
            "longitude": "-87.650378",
            "address": {
                "address": "911 W Randolph St",
                "city": "Chicago",
                "state": "IL",
                "zip": "60607"
            },
            "phone": "",
            "type": "Vegan",
            "sponsor": "",
            "bestInTownAward": "",
            "closed": "true",
            "yelpAlias": ""
        }, 
        {
            "id": "77",
            "name": "Veggie Grill - The Loop",
            "url": "https://www.veggiegrill.com/",
            "latitude": "41.887086",
            "longitude": "-87.633967",
            "address": {
                "address": "204 N Wells St",
                "city": "Chicago",
                "state": "IL",
                "zip": "60606"
            },
            "phone": "",
            "type": "Vegan",
            "sponsor": "",
            "bestInTownAward": "",
            "closed": "true",
            "yelpAlias": "veggie-grill-chicago-3"      
        }, 
        {
            "id": "78",
            "name": "Veggie Grill - River North",
            "url": "https://www.veggiegrill.com/",
            "latitude": "41.893819",
            "longitude": "-87.634129",
            "address": {
                "address": "629 N Wells St",
                "city": "Chicago",
                "state": "IL",
                "zip": "60654"
            },
            "phone": "",
            "type": "Vegan",
            "sponsor": "",
            "bestInTownAward": "",
            "closed": "true",
            "yelpAlias": ""
        },
        {
            "id": "79",
            "name": "Shree - Naperville",
            "url": "http://shreerestaurants.com",
            "latitude": "41.795290",
            "longitude": "-88.204550",
            "address": {
                "address": "1550 North Route 59",
                "city": "Naperville",
                "state": "IL",
                "zip": "60563"
            },
            "phone": "630.538.7000",
            "type": "Vegetarian",
            "sponsor": "",
            "bestInTownAward": "",
            "yelpAlias": "shree-restaurant-naperville"
        },
        {
            "id": "80",
            "name": "The Joy Bar",
            "url": "http://www.thejoybar.com",
            "latitude": "41.878101",
            "longitude": "-88.061157",
            "address": {
                "address": "548 Crescent Ave",
                "city": "Glen Ellyn",
                "state": "IL",
                "zip": "60137"
            },
            "phone": "630.504.0669",
            "type": "Vegetarian",
            "sponsor": "",
            "bestInTownAward": "",
            "yelpAlias": "the-joy-bar-glen-ellyn"
        }, {
            "id": "81",
            "name": "Honest - Naperville ",
            "url": "https://honestrestaurantsusa.com",
            "latitude": "41.768564",
            "longitude": "-88.184778",
            "address": {
                "address": "1568 Ogden Ave",
                "city": "Naperville",
                "state": "IL",
                "zip": "60540"
            },
            "phone": "847-594-4199",
            "type": "Vegetarian",
            "sponsor": "",
            "bestInTownAward": "",
            "yelpAlias": "honest-naperville"
        }, 
        {
            "id": "82",
            "name": "Honest - Schamburg",
            "url": "https://honestrestaurantsusa.com",
            "latitude": "42.049428",
            "longitude": "-88.101257",
            "address": {
                "address": "835 Higgins Rd",
                "city": "Schaumburg",
                "state": "IL",
                "zip": "60540"
            },
            "phone": "847-594-4145",
            "type": "Vegetarian",
            "sponsor": "",
            "bestInTownAward": "",
            "yelpAlias": "honest-schaumburg"
        },
        {
            "id": "83",
            "name": "Heritage Cafe",
            "url": "https://heritage1849.com",
            "latitude": "41.7513008",
            "longitude": "-87.578960",
            "address": {
                "address": "1849 E 79th St",
                "city": "Chicago",
                "state": "IL",
                "zip": "60649"
            },
            "phone": "773-530-0045",
            "type": "Vegan",
            "sponsor": "",
            "bestInTownAward": "",
            "closed": "true",
            "yelpAlias": "heritage-cafe-chicago"
        },
        {
            "id": "84",
            "name": "No Bones Beach Club",
            "url": "https://heritage1849.com",
            "latitude": "41.910403",
            "longitude": "-87.676409",
            "address": {
                "address": "1943 W North Av",
                "city": "Chicago",
                "state": "IL",
                "zip": "60618"
            },
            "phone": "",
            "type": "Vegan",
            "sponsor": "",
            "bestInTownAward": "",
            "yelpAlias": "no-bones-beach-club-chicago",
            "closed": "true"
        }, 
        {
            "id": "85",
            "name": "Udupi Palace",
            "url": "http://www.udupipalacechicago.com",
            "latitude": "42.029640",
            "longitude": "-88.061500",
            "address": {
                "address": "730 E Schaumburg Rd",
                "city": "Schaumburg",
                "state": "IL",
                "zip": "60194"
            },
            "phone": "847.884.9510",
            "type": "Vegetarian",
            "closed": "true",
            "yelpAlias": "udupi-palace-restaurant-schaumburg"
        },
        {
            "id": "86",
            "name": "Manna Kitchen",
            "url": "https://mannakitchen.net",
            "latitude": "41.796380",
            "longitude": "-88.105630",
            "address": {
                "address": "2801 Ogden Ave, Suite 8 & 9",
                "city": "Lisle",
                "state": "IL",
                "zip": "60532"
            },
            "phone": "630.536.8328",
            "type": "Vegan",
            "yelpAlias": ""
        },
        {
            "id": "87",
            "name": "Althea",
            "url": "http://www.matthewkenneycuisine.com/althea",
            "latitude": "41.895330",
            "longitude": "-87.624730",
            "address": {
                "address": "700 N Michigan Ave",
                "city": "Chicago",
                "state": "IL",
                "zip": "60611"
            },
            "phone": "312.525.3400",
            "type": "Vegan",
            "yelpAlias": "-",
            "closed": "true"
        },
        {
            "id": "88",
            "name": "Fancy Plants Cafe",
            "url": "http://www.fancyplantscafe.com",
            "latitude": "41.938690",
            "longitude": "-87.644340",
            "address": {
                "address": "613 W Briar St",
                "city": "Chicago",
                "state": "IL",
                "zip": "60657"
            },
            "phone": "773.857.1588",
            "type": "Vegan",
            "yelpAlias": "-"
        },
        {
            "id": "89",
            "name": "Be Market Lake Bluff",
            "url": "https://www.bemarketlb.com",
            "latitude": "42.279761",
            "longitude": "-87.845093",
            "address": {
                "address": "24 East Scranton",
                "city": "Lake Bluff",
                "state": "IL",
                "zip": "60044"
            },
            "phone": "224.436.8330",
            "type": "Vegan",
            "yelpAlias": "-"
        },
        {
            "id": "90",
            "name": "Cien 100% Naturalisimo",
            "url": "https://www.facebook.com/Cien100-Naturalisimo-285677212063472/",
            "latitude": "41.865330",
            "longitude": "-87.783940",
            "address": {
                "address": "2709 S Ridgeland Ave",
                "city": "Berwyn",
                "state": "IL",
                "zip": "60402"
            },
            "phone": "708.317.5679",
            "type": "Vegan",
            "yelpAlias": "-"
        },
        {
            "id": "91",
            "name": "Daisy’s Cafe II",
            "url": "https://www.facebook.com/MasterChefTsooriel/",
            "latitude": "41.578750",
            "longitude": "-87.666340",
            "address": {
                "address": "17100 Dixie Highway- Unit B",
                "city": "Hazel Crest",
                "state": "IL",
                "zip": "60429"
            },
            "phone": "708.250.7951",
            "type": "Vegetarian",
            "closed": "true",
            "yelpAlias": "-"
        },
        {
            "id": "92",
            "name": "Vegan T'ease",
            "url": "https://www.veganteaseorlandpark.com/",
            "latitude": "41.556600",
            "longitude": "-87.851130",
            "address": {
                "address": "14600 South LaGrange Road",
                "city": "Orland Park",
                "state": "IL",
                "zip": "60462"
            },
            "phone": "773.418.7469",
            "type": "Vegan",
            "yelpAlias": "-"
        },
        {
            "id": "93",
            "name": "Can't Believe It's Not Meat - South",
            "url": "https://cantbelieveitsnotmeat.com/",
            "latitude": "41.798210",
            "longitude": "-87.625720",
            "address": {
                "address": "1368 1/2 E 53rd St",
                "city": "Chicago",
                "state": "IL",
                "zip": "60615"
            },
            "phone": "773.675.8208",
            "type": "Vegetarian",
            "yelpAlias": "-"
        },
        {
            "id": "94",
            "name": "Zest Raw Vegan Eats",
            "url": "https://www.zestforelife.com",
            "latitude": "41.931080",
            "longitude": "-87.649300",
            "address": {
                "address": "2668 N. Halsted St",
                "city": "Chicago",
                "state": "IL",
                "zip": "60614"
            },
            "phone": "773.697.8567",
            "type": "Raw Vegan",
            "closed": "true",
            "yelpAlias": "-"
        },
        {
            "id": "95",
            "name": "Pegasus Protein",
            "url": "https://pegasusprotein.com",
            "latitude": "41.917620",
            "longitude": "-87.704430",
            "address": {
                "address": "3050 W Armitage Ave",
                "city": "Chicago",
                "state": "IL",
                "zip": "60614"
            },
            "phone": "312.643.0359",
            "type": "Vegan",
            "yelpAlias": "-"
        },
        {
            "id": "96",
            "name": "Veggie House",
            "url": "https://www.veggiehouseusa.com",
            "latitude": "41.854630",
            "longitude": "-87.632830",
            "address": {
                "address": "2109 South China Place",
                "city": "Chicago",
                "state": "IL",
                "zip": "60616"
            },
            "phone": "312.326.9966",
            "type": "Vegetarian",
            "yelpAlias": "-"
        },
        {
            "id": "97",
            "name": "Spirit Elephant",
            "url": "https://www.spiritelephantrestaurant.com",
            "latitude": "42.116732",
            "longitude": "-87.743944",
            "address": {
                "address": "924 Green Bay Rd",
                "city": "Winnetka",
                "state": "IL",
                "zip": "60093"
            },
            "phone": "847.348.9000",
            "type": "Vegan",
            "yelpAlias": "-"
        }, 
        {
            "id": "98",
            "name": "Versatile Jerk and Vegan",
            "url": "https://www.restaurantji.com/il/maywood/versatile-soul-food-cafe-/",
            "latitude": "41.888980",
            "longitude": "-87.838860",
            "address": {
                "address": "9 N. 5th Ave",
                "city": "Maywood",
                "state": "IL",
                "zip": "60153"
            },
            "phone": "312.402.8591",
            "type": "Vegan",
            "yelpAlias": "-"
        },
        {
            "id": "99",
            "name": "Kale My Name",
            "url": "https://www.kalemyname.com/",
            "latitude": "41.961400",
            "longitude": "-87.710820",
            "address": {
                "address": "3300 W Montrose Ave",
                "city": "Chicago",
                "state": "IL",
                "zip": "60618"
            },
            "phone": "872.208.7125",
            "type": "Vegan",
            "yelpAlias": "-"
        },
        {
            "id": "100",
            "name": "Rejoice Lounge",
            "url": "https://www.rejoicelounge.com/",
            "latitude": "41.887210",
            "longitude": "-88.300800",
            "address": {
                "address": "11 E State St",
                "city": ". Geneva",
                "state": "IL",
                "zip": "60134"
            },
            "phone": "630.943.7499",
            "type": "Vegetarian",
            "closed": "true",
            "yelpAlias": "-"
        },
        {
            "id": "101",
            "name": "Vegan World Cafe",
            "url": "https://www.facebook.com/veganworldcafe/",
            "latitude": "41.909173",
            "longitude": "-87.761444",
            "address": {
                "address": "5419 W North Ave",
                "city": "Chicago",
                "state": "IL",
                "zip": "60639"
            },
            "phone": "312.918.0293",
            "type": "Vegan",
            "yelpAlias": "-"
        },
        {
            "id": "102",
            "name": "Sky Vegan",
            "url": "https://www.skyveganchicago.com",
            "latitude": "41.998330",
            "longitude": "-87.664090",
            "address": {
                "address": "1320 W Devon Ave",
                "city": "Chicago",
                "state": "IL",
                "zip": "60660"
            },
            "phone": "773.973.0504",
            "type": "Vegan",
            "yelpAlias": "-",
            "closed": "true"
        },
        {
            "id": "103",
            "name": "Can't Believe It's Not Meat - Orland Park",
            "url": "https://cantbelieveitsnotmeat.com/",
            "latitude": "41.620490",
            "longitude": "-87.852890",
            "address": {
                "address": "24 Orland Square Dr",
                "city": "Orland Park",
                "state": "IL",
                "zip": "60462"
            },
            "phone": "708.645.4077",
            "type": "Vegetarian",
            "yelpAlias": "-"
        },
        {
            "id": "104",
            "name": "Can't Believe It's Not Meat - North",
            "url": "https://cantbelieveitsnotmeat.com/",
            "latitude": "41.903190",
            "longitude": "-87.634300",
            "address": {
                "address": "1143 N Wells st",
                "city": "Chicago",
                "state": "IL",
                "zip": "60610"
            },
            "phone": "-",
            "type": "Vegetarian",
            "yelpAlias": "-"
        },
        {
            "id": "106",
            "name": "Uprising Bakery and Cafe",
            "url": "http://www.uprisingbakeryandcafe.com",
            "latitude": "42.1757267",
            "longitude": "-88.3761652",
            "address": {
                "address": "2104 Algonquin Rd",
                "city": "Lake in the Hills,",
                "state": "IL",
                "zip": "60156"
            },
            "phone": "-",
            "type": "Vegetarian",
            "yelpAlias": "-"
        },
        {
            "id": "107",
            "name": "Maoz Vegetarian - Schaumburg",
            "url": "http://www.maozusa.com/restaurants/locations/chicago/",
            "latitude": "42.046260",
            "longitude": "-88.036460",
            "address": {
                "address": "5 Woodfield Mall",
                "city": "Schaumburg",
                "state": "IL",
                "zip": "60173"
            },
            "phone": "847.796.0430",
            "type": "Vegetarian",
            "yelpAlias": "-"
        },
        {
            "id": "108",
            "name": "The Eating Well",
            "url": "https://eatingwellonline.com/restaurant",
            "latitude": "42.003590",
            "longitude": "-88.103190",
            "address": {
                "address": "951 W Wise Rd",
                "city": "Schaumburg",
                "state": "IL",
                "zip": "60193"
            },
            "phone": "708.401.5278",
            "type": "Vegan",
            "yelpAlias": "-"
        },
        {
            "id": "109",
            "name": "Bloom Plant Based Kitchen",
            "url": "https://www.bloompb.com/",
            "latitude": "41.909970",
            "longitude": "-87.676330",
            "address": {
                "address": "1559 N. Milwaukee Ave",
                "city": "Chicago",
                "state": "IL",
                "zip": "60622"
            },
            "phone": "312.363.3110",
            "type": "Vegan",
            "closed": "true",
            "yelpAlias": "-"
        },
        {
            "id": "110",
            "name": "Fons Empanadas",
            "url": "https://www.havingfons.com/",
            "latitude": "41.929419",
            "longitude": "-87.64291",
            "address": {
                "address": "2566 N Clark St",
                "city": "Chicago",
                "state": "IL",
                "zip": "60614"
            },
            "phone": "312.874.4080",
            "type": "Vegan",
            "yelpAlias": "-"
        },
        {
            "id": "111",
            "name": "I'M Vegan",
            "url": "http://www.imveganchicago.com/",
            "latitude": "41.93488646646642",
            "longitude": "-87.66131641538928",
            "address": {
                "address": "2907 N Lincoln Ave",
                "city": "Chicago",
                "state": "IL",
                "zip": "60657"
            },
            "phone": "773.904.8905",
            "type": "Vegan",
            "yelpAlias": "-",
            "closed": "true"
        },
        {
            "id": "112",
            "name": "JuiceRx Streeterville",
            "url": "https://drinkjuicerx.com/",
            "latitude": "41.8952999333567",
            "longitude": "-87.62267802469422",
            "address": {
                "address": "211 E. Ontario St.",
                "city": "Chicago",
                "state": "IL",
                "zip": "60611"
            },
            "phone": "312.825.1275",
            "type": "Raw Vegan",
            "yelpAlias": "-"
        },
        {
            "id": "113",
            "name": "JuiceRx Bucktown",
            "url": "https://drinkjuicerx.com/",
            "latitude": "41.91776401737746",
            "longitude": "-87.67837246314407",
            "address": {
                "address": "1880 N. Damen Ave",
                "city": "Chicago",
                "state": "IL",
                "zip": "60647"
            },
            "phone": "312.252.4938",
            "type": "Raw Vegan",
            "yelpAlias": "-"
        },
        {
            "id": "114",
            "name": "JuiceRx Lakeview",
            "url": "https://drinkjuicerx.com/",
            "latitude": "41.94141984630769",
            "longitude": "-87.64420806142029",
            "address": {
                "address": "3241 N. Broadway St",
                "city": "Chicago",
                "state": "IL",
                "zip": "60657"
            },
            "phone": "773.857.7979",
            "type": "Raw Vegan",
            "yelpAlias": "-"
        },
        {
            "id": "115",
            "name": "JuiceRx Headquarters",
            "url": "https://drinkjuicerx.com/",
            "latitude": "41.97318747288471",
            "longitude": "-87.9651642460756",
            "address": {
                "address": "571 N. Edgewood Ave",
                "city": "Wood Dale",
                "state": "IL",
                "zip": "60191"
            },
            "phone": "-",
            "type": "Raw Vegan",
            "yelpAlias": "-"
        },
        {
            "id": "116",
            "name": "Sam & Gertie's",
            "url": "https://www.samandgerties.com/",
            "latitude": "41.96532147288025",
            "longitude": "-87.66293014607584",
            "address": {
                "address": "1309 w. Wilson Ave",
                "city": "Chicago",
                "state": "IL",
                "zip": "60640"
            },
            "phone": "773.293.7413",
            "type": "Vegan",
            "yelpAlias": "-"
        },
        {
            "id": "117",
            "name": "Scoops Dessert Bar",
            "url": "https://www.yelp.com/biz/scoops-dessert-bar-chicago-2",
            "latitude": "41.900562947341875",
            "longitude": "-87.6285766405331",
            "address": {
                "address": "838 N State St",
                "city": "Chicago",
                "state": "IL",
                "zip": "60610"
            },
            "phone": "312.340.8291",
            "type": "Vegan",
            "closed": "true",
            "yelpAlias": "-"
        },
        {
            "id": "118",
            "name": "Vaca's Creamery",
            "url": "https://www.vacascreamery.com/",
            "latitude": "41.907250",
            "longitude": "-87.664210",
            "address": {
                "address": "1436 W Blackhawk St",
                "city": "Chicago",
                "state": "IL",
                "zip": "60642"
            },
            "phone": "-",
            "type": "Vegan",
            "yelpAlias": "-"
        },
        {
            "id": "119",
            "name": "Zest Raw Vegan Culinary Cafe",
            "url": "https://zestrawveganeats.com/",
            "latitude": "41.931269139840815",
            "longitude": "-87.64927535956905",
            "address": {
                "address": "2668 N. Halsted st",
                "city": "Chicago",
                "state": "IL",
                "zip": "60614"
            },
            "phone": "773.697.8567",
            "type": "Raw Vegan",
            "closed": "true",
            "yelpAlias": "-"
        },
        {
            "id": "120",
            "name": "Un-Cooked - Fulton Market",
            "url": "https://www.eatuncooked.com/",
            "latitude": "41.886080537578636",
            "longitude": "-87.65350154607818",
            "address": {
                "address": "210 N Carpenter St",
                "city": "Chicago",
                "state": "IL",
                "zip": "60607"
            },
            "phone": "312.315.5552",
            "type": "Raw Vegan",
            "yelpAlias": "-"
        },
        {
            "id": "121",
            "name": "Un-Cooked - Bucktown",
            "url": "https://www.eatuncooked.com/",
            "latitude": "41.911302910372655",
            "longitude": "-87.67772210194683",
            "address": {
                "address": "1616 N. Damen Ave",
                "city": "Chicago",
                "state": "IL",
                "zip": "60647"
            },
            "phone": " 312-315-5552",
            "type": "Raw Vegan",
            "closed": "true",
            "yelpAlias": "-"
        },
        {
            "id": "122",
            "name": "Un-Cooked - Downes Grove",
            "url": "https://www.eatuncooked.com/",
            "latitude": "41.804329924337495",
            "longitude": "-88.0491854105401",
            "address": {
                "address": "2589 Ogden Ave",
                "city": "Downers Grove",
                "state": "IL",
                "zip": "60515"
            },
            "phone": "312.315.5552",
            "type": "Raw Vegan",
            "closed": "true",
            "yelpAlias": "-"
        },
        {
            "id": "123",
            "name": "Un-Cooked - Oak Park",
            "url": "https://www.eatuncooked.com/",
            "latitude": "41.908665592874605",
            "longitude": "-87.80448827984577",
            "address": {
                "address": "7103 W. North Ave",
                "city": "Oak Park",
                "state": "IL",
                "zip": "60302"
            },
            "phone": "312.315.5552",
            "type": "Raw Vegan",
            "closed": "true",
            "yelpAlias": "-"
        },
        {
            "id": "124",
            "name": "Un-Cooked - Lincoln Park",
            "url": "https://www.eatuncooked.com/",
            "latitude": "41.92522020184422",
            "longitude": "-87.65980094598645",
            "address": {
                "address": "1231 W Fullerton Ave",
                "city": "Chicago",
                "state": "IL",
                "zip": "60614"
            },
            "phone": "312.315.5552",
            "type": "Raw Vegan",
            "closed": "true",
            "yelpAlias": "-"
        },
        {
            "id": "125",
            "name": "Majani - South Loop",
            "url": "https://www.majani.biz",
            "latitude": "41.84656810941358",
            "longitude": "-87.62485641543941",
            "address": {
                "address": "2537 S Wabash Ave",
                "city": "Chicago",
                "state": "IL",
                "zip": "60616"
            },
            "phone": "224.499.4940",
            "type": "Vegan",
            "sponsor": "",
            "bestInTownAward": "",
            "yelpAlias": "majani-restaurant-chicago"
        },
        {
            "id": "126",
            "name": "Majani - One Eleven Hall Food",
            "url": "https://www.majani.biz",
            "latitude": "41.6931351190442",
            "longitude": "-87.60139853264364",
            "address": {
                "address": "756 E 111th Street",
                "city": "Chicago",
                "state": "IL",
                "zip": "60628"
            },
            "phone": "773.840.3491",
            "type": "Vegan",
            "sponsor": "",
            "bestInTownAward": "",
            "yelpAlias": "majani-restaurant-chicago"
        },
        {
            "id": "127",
            "name": "Bani's Beet",
            "url": "https://www.facebook.com/banisbeets1/about/",
            "latitude": "41.84662405531273",
            "longitude": "-87.62485105108235",
            "address": {
                "address": "2537 South Wabash Avenue",
                "city": "Chicago",
                "state": "IL",
                "zip": "60616"
            },
            "phone": "773.599.9764",
            "type": "Vegan",
            "yelpAlias": "-"
        },
        {
            "id": "128",
            "name": "Plant Based Junkie",
            "url": "https://www.plantbasedjunkiechicago.com/",
            "latitude": "41.736970546271365",
            "longitude": "-87.5837927480305",
            "address": {
                "address": "1639 E 87th St",
                "city": "Chicago",
                "state": "IL",
                "zip": "60607"
            },
            "phone": "773.902.7467",
            "type": "Vegan",
            "closed": "true",
            "yelpAlias": "-"
        },
        {
            "id": "129",
            "name": "Lucy's Cafe",
            "url": "https://lucyscafe.net/",
            "latitude": "41.94356046252129",
            "longitude": "-87.68109461733638",
            "address": {
                "address": "2100 W. Roscoe St",
                "city": "Chicago",
                "state": "IL",
                "zip": "60618"
            },
            "phone": "773.665.0227",
            "type": "Vegetarian",
            "yelpAlias": "-"
        },
        {
            "id": "130",
            "name": "Stand-up Burger (The Loop)",
            "url": "https://www.standupburgers.com/lakeandwells",
            "latitude": "41.885969101082665",
            "longitude": "-87.63405230240312",
            "address": {
                "address": "204 North Wells St. ",
                "city": "Chicago",
                "state": "IL",
                "zip": "60606"
            },
            "phone": "312.658.1338",
            "type": "Vegan",
            "closed": "true",
            "yelpAlias": "-"
        },
        {
            "id": "131",
            "name": "Stand-up Burger (LakeView East)",
            "url": "https://www.standupburgers.com/lakeview",
            "latitude": "41.9331130269292",
            "longitude": "-87.64430604473034",
            "address": {
                "address": "614 W Diversey Pkwy",
                "city": "Chicago",
                "state": "IL",
                "zip": "60614"
            },
            "phone": "773.868.1863",
            "type": "Vegan",
            "closed": "true",
            "yelpAlias": "-"
        },
        {
            "id": "132",
            "name": "Quesadilla La Reyna Del Sur - Pilsen",
            "url": "https://www.quesadillalareinadelsur.com/pilsen",
            "latitude": "41.85777500592379",
            "longitude": "-87.6646235461064",
            "address": {
                "address": "1519 W 18th St",
                "city": "Chicago",
                "state": "IL",
                "zip": "60608"
            },
            "phone": "312.526.3548",
            "type": "Vegetarian",
            "sponsor": "Gold",
            "bestInTownAward": "",
            "closed": "true",
            "yelpAlias": "quesadilla-la-reyna-del-sur-chicago-2"
        },
        {
            "id": "133",
            "name": "Planta Queen | Chicago",
            "url": "https://www.plantarestaurants.com/location/planta-chicago/",
            "latitude": "41.88969343650436",
            "longitude": "-87.63067728773545",
            "address": {
                "address": "413 N Clark St",
                "city": "Chicago",
                "state": "IL",
                "zip": "60654"
            },
            "phone": "630.691.7238",
            "type": "Vegan",
            "sponsor": "",
            "bestInTownAward": "",
            "yelpAlias": ""
        },
        {
            "id": "134",
            "name": "Logan Vegan",
            "url": "https://www.loganvegan.com/",
            "latitude": "41.92794852021741",
            "longitude": "-87.7067341604055",
            "address": {
                "address": "2535 North Kedzie Boulevard",
                "city": "Chicago",
                "state": "IL",
                "zip": "60647"
            },
            "phone": "773.904.8971",
            "type": "Vegan",
            "sponsor": "",
            "bestInTownAward": "",
            "yelpAlias": ""
        },
        {
            "id": "135",
            "name": "Plant Junkie",
            "url": "https://plantjunkiewashington.dine.online/locations/838805",
            "latitude": "41.883212914710576",
            "longitude": "-87.62853055871436",
            "address": {
                "address": "15 W. Washington St",
                "city": "Chicago",
                "state": "IL",
                "zip": "60602"
            },
            "phone": "847.409.2445",
            "type": "Vegan",
            "sponsor": "",
            "bestInTownAward": "",
            "closed": "true",
            "yelpAlias": ""
        },
        {
            "id": "136",
            "name": "The Water Bar",
            "url": "https://www.thewaterbar.biz/geneva-il.html",
            "latitude": "41.888324112451876",
            "longitude": "-88.30849420110287",
            "address": {
                "address": "315 W State St",
                "city": "Geneva",
                "state": "IL",
                "zip": "60134"
            },
            "phone": "815.214.9552",
            "type": "Vegan",
            "sponsor": "",
            "bestInTownAward": "",
            "yelpAlias": ""
        },
        {
            "id": "137",
            "name": "Elephant+Vine - Lincoln Park",
            "url": "https://www.elephantandvine.com/",
            "latitude": "41.92439000515036",
            "longitude": "-87.6466676631547",
            "address": {
                "address": "2315 N. Lincoln Ave",
                "city": "Chicago",
                "state": "IL",
                "zip": "60614"
            },
            "phone": "312.546.9742",
            "type": "Vegan",
            "sponsor": "",
            "bestInTownAward": "",
            "yelpAlias": ""
        },
        {
            "id": "138",
            "name": "Elephant+Vine - Evanston",
            "url": "https://www.elephantandvine.com/",
            "latitude": "42.04894081394123",
            "longitude": "-87.68139197415206",
            "address": {
                "address": "719 Church St",
                "city": "Evanston",
                "state": "IL",
                "zip": "60201"
            },
            "phone": "847.586.0223",
            "type": "Vegan",
            "sponsor": "",
            "bestInTownAward": "",
            "yelpAlias": ""
        },
        {
            "id": "139",
            "name": "Vegan Now 2 Go",
            "url": "https://www.vegannow2go.com/",
            "latitude": "41.759213180125364",
            "longitude": "-87.58694102087277",
            "address": {
                "address": "1536 E. 75th St",
                "city": "Chicago",
                "state": "IL",
                "zip": "60619"
            },
            "phone": "773.891.1433",
            "type": "Vegan",
            "sponsor": "",
            "bestInTownAward": "",
            "yelpAlias": ""
        },
        {
            "id": "140",
            "name": "Nekter Juice Bar",
            "url": "https://locations.nekterjuicebar.com/ll/us/il/chicago/1338-s-halstead-space-12/",
            "latitude": "41.864417511964525",
            "longitude": "-87.64711301780929",
            "address": {
                "address": "1338 S. Halsted St",
                "city": "Chicago",
                "state": "IL",
                "zip": "60607"
            },
            "phone": "312.530.0206",
            "type": "Vegan",
            "sponsor": "",
            "bestInTownAward": "",
            "yelpAlias": ""
        },
        {
            "id": "141",
            "name": "Runaway Cow",
            "url": "https://www.runawaycowvegan.com/",
            "latitude": "41.838422373958494",
            "longitude": "-87.64184575652719",
            "address": {
                "address": "608 W 31st St",
                "city": "Chicago",
                "state": "IL",
                "zip": "60616"
            },
            "phone": "312.846.1626",
            "type": "Vegan",
            "sponsor": "",
            "bestInTownAward": "",
            "yelpAlias": ""
        },


        {
            "id": "142",
            "name": "Penelope’s Vegan Taqueria - Andersonville",
            "url": "https://penelopesvegantaqueria.com/andersonville-clark-st",
            "latitude": "41.97660753943843",
            "longitude": "-87.66866737362378",
            "address": {
                "address": "5204 N. Clark Street",
                "city": "Chicago",
                "state": "IL",
                "zip": "60640"
            },
            "phone": "773.754.7192",
            "type": "Vegan",
            "sponsor": "",
            "bestInTownAward": "",
            "yelpAlias": ""
        },
        {
            "id": "143",
            "name": "Penelope’s Vegan Taqueria - River North",
            "url": "https://penelopesvegantaqueria.com/river-north-chicago-ave",
            "latitude": "41.89684902790013",
            "longitude": "-87.6355502872039",
            "address": {
                "address": "230 W. Chicago Ave",
                "city": "Chicago",
                "state": "IL",
                "zip": "60654"
            },
            "phone": "312.265.0400",
            "type": "Vegan",
            "sponsor": "",
            "bestInTownAward": "",
            "yelpAlias": ""
        },
        {
            "id": "144",
            "name": "Penelope’s Vegan Taqueria - Pilsen",
            "url": "https://penelopesvegantaqueria.com/pilsen-18th-st",
            "latitude": "41.85795888835692",
            "longitude": "-87.65565672944734",
            "address": {
                "address": "1165 W. 18th St",
                "city": "Chicago",
                "state": "IL",
                "zip": "60608"
            },
            "phone": "872.342.3851",
            "type": "Vegan",
            "sponsor": "",
            "bestInTownAward": "",
            "yelpAlias": ""
        },
        {
            "id": "145",
            "name": "17",
            "url": "https://www.17kitchen.com/",
            "latitude": "42.04919847658517",
            "longitude": "-87.68080981614516",
            "address": {
                "address": "1710 Orrington Ave",
                "city": "Evanston",
                "state": "IL",
                "zip": "60608"
            },
            "phone": "847.376.2085",
            "type": "Vegan",
            "sponsor": "",
            "bestInTownAward": "",
            "yelpAlias": ""
        },
        {
            "id": "146",
            "name": "Cinnaholic - Chicago - South Loop",
            "url": "https://locations.cinnaholic.com/ll/us/il/chicago/130/",
            "latitude": "41.86574794985496",
            "longitude": "-87.64022123149296",
            "address": {
                "address": "1254 S Canal St",
                "city": "Chicago",
                "state": "IL",
                "zip": "60607"
            },
            "phone": "224.575.7655",
            "type": "Vegan",
            "sponsor": "",
            "bestInTownAward": "",
            "yelpAlias": ""
        },
       { 
            "id": "147",
            "name": "Honest - Orland Park",
            "url": "https://honestrestaurantsusa.com",
            "latitude": "41.60270587943285",
            "longitude": "-87.84146718732711",
            "address": {
                "address": "9178 W 159th St",
                "city": "Orland Park",
                "state": "IL",
                "zip": "60462"
            },
            "phone": "708.981.3415",
            "type": "Vegetarian",
            "sponsor": "",
            "bestInTownAward": "",
            "yelpAlias": ""
        },
        { 
            "id": "148",
            "name": "Honest - Niles",
            "url": "https://honestrestaurantsusa.com",
            "latitude": "42.05419179712714",
            "longitude": "-87.83516468730977",
            "address": {
                "address": "8351 W Golf Rd, Unit A",
                "city": "Niles",
                "state": "IL",
                "zip": "60714"
            },
            "phone": "847.594.4117",
            "type": "Vegetarian",
            "sponsor": "",
            "bestInTownAward": "",
            "yelpAlias": ""
        }
   ]
}
